[
  {
    "firstRoute": {
      "id": 9338,
      "number": "759",
      "type": "Автобус"
    },
    "secondRoute": {
      "id": 9527,
      "number": "859",
      "type": "Автобус"
    },
    "stops": [
      {
        "id": 132832,
        "name": "«Карачарово",
        "latitude": 55.73668658,
        "longitude": 37.75936122,
        "districtId": 1613,
        "district": "Нижегородский район"
      },
      {
        "id": 140853,
        "name": "«2-я Карачаровская ул.», Перовское шоссе",
        "latitude": 55.7369388,
        "longitude": 37.75272467,
        "districtId": 1613,
        "district": "Нижегородский район"
      },
      {
        "id": 140851,
        "name": "«3-я Карачаровская ул.», Перовское шоссе",
        "latitude": 55.73447602,
        "longitude": 37.74136971,
        "districtId": 1613,
        "district": "Нижегородский район"
      },
      {
        "id": 140850,
        "name": "«Перовское ш.», Перовское шоссе",
        "latitude": 55.73335766,
        "longitude": 37.73559321,
        "districtId": 1613,
        "district": "Нижегородский район"
      },
      {
        "id": 133612,
        "name": "«Платф. Нижегородская», шоссе Фрезер",
        "latitude": 55.73396334,
        "longitude": 37.73275712,
        "districtId": 1613,
        "district": "Нижегородский район"
      },
      {
        "id": 131192,
        "name": "«Аптека», Новочеркасский бульвар",
        "latitude": 55.64671011,
        "longitude": 37.73343743,
        "districtId": 1616,
        "district": "район Марьино"
      },
      {
        "id": 140882,
        "name": "«2-я Фрезерная ул.», шоссе Фрезер",
        "latitude": 55.74006584,
        "longitude": 37.73624448,
        "districtId": 1613,
        "district": "Нижегородский район"
      },
      {
        "id": 132776,
        "name": "«Ш. Фрезер», шоссе Фрезер",
        "latitude": 55.74211838,
        "longitude": 37.7370948,
        "districtId": 1613,
        "district": "Нижегородский район"
      },
      {
        "id": 130802,
        "name": "«Платф. Андроновка», 1-я Фрезерная улица",
        "latitude": 55.74478947,
        "longitude": 37.73886412,
        "districtId": 1613,
        "district": "Нижегородский район"
      },
      {
        "id": 133802,
        "name": "«Андроновское шоссе», проезд без названия",
        "latitude": 55.74602475,
        "longitude": 37.73525189,
        "districtId": 1614,
        "district": "район Лефортово"
      },
      {
        "id": 140849,
        "name": "«Андроновское ш., 26», 5-я Кабельная улица",
        "latitude": 55.73723793,
        "longitude": 37.72492115,
        "districtId": 1614,
        "district": "район Лефортово"
      },
      {
        "id": 140848,
        "name": "«5-я Кабельная ул.», 5-я Кабельная улица",
        "latitude": 55.7378007785,
        "longitude": 37.721987915,
        "districtId": 1614,
        "district": "район Лефортово"
      },
      {
        "id": 140868,
        "name": "«8-й таксомоторный парк», Авиамоторная улица",
        "latitude": 55.73988041,
        "longitude": 37.72115129,
        "districtId": 1614,
        "district": "район Лефортово"
      },
      {
        "id": 140847,
        "name": "«4-я Кабельная ул. - Дворец единоборств», Авиамоторная улица",
        "latitude": 55.74081344,
        "longitude": 37.72101184,
        "districtId": 1614,
        "district": "район Лефортово"
      },
      {
        "id": 129667,
        "name": "«Дворец единоборств», улица Логвиненко",
        "latitude": 55.98395742,
        "longitude": 37.15349157,
        "districtId": 1646,
        "district": "район Крюково"
      },
      {
        "id": 140794,
        "name": "«Авиамоторная ул., 30», Авиамоторная улица",
        "latitude": 55.7445732,
        "longitude": 37.72146167,
        "districtId": 1614,
        "district": "район Лефортово"
      },
      {
        "id": 140776,
        "name": "«3-я Кабельная ул.», Авиамоторная улица",
        "latitude": 55.74796077,
        "longitude": 37.7196484,
        "districtId": 1614,
        "district": "район Лефортово"
      },
      {
        "id": 140775,
        "name": "«2-й Кабельный пр.», 2-й Кабельный проезд",
        "latitude": 55.7502275,
        "longitude": 37.71388694,
        "districtId": 1614,
        "district": "район Лефортово"
      }
    ],
    "matchPercentage": 0.6545454545454545
  },
  {
    "firstRoute": {
      "id": 9391,
      "number": "697",
      "type": "Автобус"
    },
    "secondRoute": {
      "id": 10111,
      "number": "197",
      "type": "Автобус"
    },
    "stops": [
      {
        "id": 140253,
        "name": "«Снайперская ул.», улица Красный Казанец",
        "latitude": 55.71935039,
        "longitude": 37.81053021,
        "districtId": 1609,
        "district": "район Вешняки"
      },
      {
        "id": 140252,
        "name": "«Ул. Красный Казанец», улица Красный Казанец",
        "latitude": 55.7208135,
        "longitude": 37.80611827,
        "districtId": 1609,
        "district": "район Вешняки"
      },
      {
        "id": 131648,
        "name": "«Платф. Вешняки», улица Хлобыстова",
        "latitude": 55.72213325,
        "longitude": 37.79764727,
        "districtId": 1631,
        "district": "Рязанский район"
      },
      {
        "id": 140199,
        "name": "«Аллея Первой Маёвки», улица Юности",
        "latitude": 55.7251132,
        "longitude": 37.80044692,
        "districtId": 1609,
        "district": "район Вешняки"
      },
      {
        "id": 140108,
        "name": "«Ул. Юности, 11», улица Юности",
        "latitude": 55.72714499,
        "longitude": 37.80338244,
        "districtId": 1609,
        "district": "район Вешняки"
      },
      {
        "id": 140015,
        "name": "«Ул. Молдагуловой», улица Юности",
        "latitude": 55.72907409,
        "longitude": 37.80627452,
        "districtId": 1609,
        "district": "район Вешняки"
      },
      {
        "id": 129985,
        "name": "«Просп. Вернадского», Университетский проспект",
        "latitude": 55.69980121,
        "longitude": 37.54664117,
        "districtId": 1719,
        "district": "Гагаринский район"
      },
      {
        "id": 140485,
        "name": "«Снайперская ул., 3», улица Молдагуловой",
        "latitude": 55.72424162,
        "longitude": 37.81891804,
        "districtId": 1609,
        "district": "район Вешняки"
      },
      {
        "id": 131087,
        "name": "«Детская п-ка № 7», улица Молдагуловой",
        "latitude": 55.72286989,
        "longitude": 37.8216636,
        "districtId": 1609,
        "district": "район Вешняки"
      },
      {
        "id": 140167,
        "name": "«Пл. Амилкара Кабрала», улица Молдагуловой",
        "latitude": 55.72092079,
        "longitude": 37.82738008,
        "districtId": 1609,
        "district": "район Вешняки"
      },
      {
        "id": 140166,
        "name": "«Вешняки-Владычино», улица Молдагуловой",
        "latitude": 55.71977335,
        "longitude": 37.83079687,
        "districtId": 1609,
        "district": "район Вешняки"
      },
      {
        "id": 134715,
        "name": "«Косинская ул., 22», Косинская улица",
        "latitude": 55.71775024,
        "longitude": 37.83209361,
        "districtId": 1609,
        "district": "район Вешняки"
      },
      {
        "id": 130413,
        "name": "«Косинская ул., 28», Косинская улица",
        "latitude": 55.714570461,
        "longitude": 37.8284981817,
        "districtId": 1609,
        "district": "район Вешняки"
      }
    ],
    "matchPercentage": 1
  },
  {
    "firstRoute": {
      "id": 9392,
      "number": "696",
      "type": "Автобус"
    },
    "secondRoute": {
      "id": 9481,
      "number": "181",
      "type": "Автобус"
    },
    "stops": [
      {
        "id": 132790,
        "name": "«Осташковская ул.",
        "latitude": 55.88622691,
        "longitude": 37.67415816,
        "districtId": 1739,
        "district": "район Северное Медведково"
      },
      {
        "id": 138043,
        "name": "«Отделение связи № 224», Широкая улица",
        "latitude": 55.88766677,
        "longitude": 37.66706226,
        "districtId": 1739,
        "district": "район Северное Медведково"
      },
      {
        "id": 135612,
        "name": "«Заревый пр., 19», Заревый проезд",
        "latitude": 55.88620647,
        "longitude": 37.65588399,
        "districtId": 1739,
        "district": "район Северное Медведково"
      },
      {
        "id": 133730,
        "name": "«Заревый пр.», проезд Шокальского",
        "latitude": 55.88221976,
        "longitude": 37.6602687,
        "districtId": 1739,
        "district": "район Северное Медведково"
      },
      {
        "id": 136169,
        "name": "«Управа района Северное Медведково», проезд Шокальского",
        "latitude": 55.88121649,
        "longitude": 37.65289198,
        "districtId": 1739,
        "district": "район Северное Медведково"
      },
      {
        "id": 133904,
        "name": "«Раево», проезд Шокальского",
        "latitude": 55.879463014682806,
        "longitude": 37.645273180658826,
        "districtId": 1739,
        "district": "район Северное Медведково"
      },
      {
        "id": 136167,
        "name": "«Медведковский ЗАГС», проезд Шокальского",
        "latitude": 55.87804895,
        "longitude": 37.64504162,
        "districtId": 1739,
        "district": "район Северное Медведково"
      },
      {
        "id": 131656,
        "name": "«Поликлиника № 218», проезд Шокальского",
        "latitude": 55.87455055,
        "longitude": 37.64568002,
        "districtId": 1722,
        "district": "район Южное Медведково"
      },
      {
        "id": 130855,
        "name": "«Пр. Шокальского», проезд Дежнёва",
        "latitude": 55.87170732,
        "longitude": 37.64464284,
        "districtId": 1722,
        "district": "район Южное Медведково"
      },
      {
        "id": 130952,
        "name": "«Сухонская ул.», Сухонская улица",
        "latitude": 55.87270085,
        "longitude": 37.65276068,
        "districtId": 1722,
        "district": "район Южное Медведково"
      },
      {
        "id": 131115,
        "name": "«Ул. Менжинского, 38», улица Менжинского",
        "latitude": 55.87083854,
        "longitude": 37.65814824,
        "districtId": 1736,
        "district": "Бабушкинский район"
      },
      {
        "id": 136025,
        "name": "«Староватутинский пр.», улица Лётчика Бабушкина",
        "latitude": 55.87376801,
        "longitude": 37.67856424,
        "districtId": 1717,
        "district": "Лосиноостровский район"
      },
      {
        "id": 130094,
        "name": "«Тайнинская ул.», Широкая улица",
        "latitude": 55.88601046,
        "longitude": 37.68541075,
        "districtId": 1717,
        "district": "Лосиноостровский район"
      },
      {
        "id": 136156,
        "name": "«Оборонная ул.», Тайнинская улица",
        "latitude": 55.88179064,
        "longitude": 37.68468756,
        "districtId": 1717,
        "district": "Лосиноостровский район"
      },
      {
        "id": 136157,
        "name": "«Тайнинская ул., 24», Тайнинская улица",
        "latitude": 55.88413602,
        "longitude": 37.68639302,
        "districtId": 1717,
        "district": "Лосиноостровский район"
      },
      {
        "id": 133838,
        "name": "«Платф. Лось",
        "latitude": 55.8807411,
        "longitude": 37.71086517,
        "districtId": 1717,
        "district": "Лосиноостровский район"
      }
    ],
    "matchPercentage": 0.6666666666666666
  },
  {
    "firstRoute": {
      "id": 9394,
      "number": "691",
      "type": "Автобус"
    },
    "secondRoute": {
      "id": 10215,
      "number": "293",
      "type": "Автобус"
    },
    "stops": [
      {
        "id": 131877,
        "name": "«Остафьевская ул.",
        "latitude": 55.52697194,
        "longitude": 37.51747686,
        "districtId": 1666,
        "district": "район Южное Бутово"
      },
      {
        "id": 131879,
        "name": "«Чечерский пр., 118», Остафьевская улица",
        "latitude": 55.52698595,
        "longitude": 37.51543996,
        "districtId": 1666,
        "district": "район Южное Бутово"
      },
      {
        "id": 130896,
        "name": "«Южнобутовская ул., 143», Остафьевская улица",
        "latitude": 55.52867953,
        "longitude": 37.50947006,
        "districtId": 1666,
        "district": "район Южное Бутово"
      },
      {
        "id": 131882,
        "name": "«6-й мкр. Южного Бутова», Южнобутовская улица",
        "latitude": 55.53108266,
        "longitude": 37.51230933,
        "districtId": 1666,
        "district": "район Южное Бутово"
      },
      {
        "id": 132096,
        "name": "«5-й мкр. Южного Бутова», улица Бунинская Аллея",
        "latitude": 55.53540766,
        "longitude": 37.5153766,
        "districtId": 1666,
        "district": "район Южное Бутово"
      },
      {
        "id": 132386,
        "name": "«Поликлиника № 121», Южнобутовская улица",
        "latitude": 55.53504753,
        "longitude": 37.52158411,
        "districtId": 1666,
        "district": "район Южное Бутово"
      },
      {
        "id": 131871,
        "name": "«4-й мкр. Южного Бутова», улица Горчакова",
        "latitude": 55.53481473,
        "longitude": 37.53637595,
        "districtId": 1666,
        "district": "район Южное Бутово"
      },
      {
        "id": 130256,
        "name": "«Южнобутовская ул.», улица Горчакова",
        "latitude": 55.53877294,
        "longitude": 37.53389757,
        "districtId": 1666,
        "district": "район Южное Бутово"
      },
      {
        "id": 130007,
        "name": "«Центр социальной реабилитации», Южнобутовская улица",
        "latitude": 55.54023526,
        "longitude": 37.53698496,
        "districtId": 1666,
        "district": "район Южное Бутово"
      },
      {
        "id": 132393,
        "name": "«Мкр. Поляны», Южнобутовская улица",
        "latitude": 55.54306713,
        "longitude": 37.53967851,
        "districtId": 1666,
        "district": "район Южное Бутово"
      },
      {
        "id": 132782,
        "name": "«2-й мкр. Южного Бутова",
        "latitude": 55.54904395,
        "longitude": 37.54285147,
        "districtId": 1666,
        "district": "район Южное Бутово"
      }
    ],
    "matchPercentage": 0.7333333333333333
  },
  {
    "firstRoute": {
      "id": 9402,
      "number": "681",
      "type": "Автобус"
    },
    "secondRoute": {
      "id": 9500,
      "number": "100",
      "type": "Автобус"
    },
    "stops": [
      {
        "id": 138297,
        "name": "«Ул. Акад. Бочвара», улица Академика Бочвара",
        "latitude": 55.80504096,
        "longitude": 37.45957822,
        "districtId": 1713,
        "district": "район Щукино"
      },
      {
        "id": 138298,
        "name": "«Ин-т им. Гамалеи», улица Гамалеи",
        "latitude": 55.8023736,
        "longitude": 37.45657188,
        "districtId": 1713,
        "district": "район Щукино"
      },
      {
        "id": 138299,
        "name": "«Центр стоматологии», улица Гамалеи",
        "latitude": 55.79978613,
        "longitude": 37.45854362,
        "districtId": 1713,
        "district": "район Щукино"
      },
      {
        "id": 138300,
        "name": "«Ул. Гамалеи», улица Гамалеи",
        "latitude": 55.79792174,
        "longitude": 37.46496338,
        "districtId": 1713,
        "district": "район Щукино"
      },
      {
        "id": 138116,
        "name": "«Пл. Ген. Жадова», улица Максимова",
        "latitude": 55.80089465,
        "longitude": 37.4720039,
        "districtId": 1713,
        "district": "район Щукино"
      },
      {
        "id": 138123,
        "name": "«Пл. Акад. Курчатова», площадь Академика Курчатова",
        "latitude": 55.80252671,
        "longitude": 37.47518834,
        "districtId": 1713,
        "district": "район Щукино"
      },
      {
        "id": 134736,
        "name": "«Ул. Марш. Бирюзова, 1», улица Берзарина",
        "latitude": 55.78872533,
        "longitude": 37.49904437,
        "districtId": 1693,
        "district": "район Хорошёво-Мнёвники"
      }
    ],
    "matchPercentage": 0.6666666666666666
  },
  {
    "firstRoute": {
      "id": 9404,
      "number": "678",
      "type": "Автобус"
    },
    "secondRoute": {
      "id": 9494,
      "number": "102",
      "type": "Автобус"
    },
    "stops": [
      {
        "id": 129673,
        "name": "«Детская п-ка», улица Каменка",
        "latitude": 55.98019918,
        "longitude": 37.16174927,
        "districtId": 1646,
        "district": "район Крюково"
      },
      {
        "id": 138194,
        "name": "«Алешкино», Алёшкинский проезд",
        "latitude": 55.86670745,
        "longitude": 37.44211671,
        "districtId": 1694,
        "district": "район Северное Тушино"
      },
      {
        "id": 138193,
        "name": "«Школа № 132», улица Свободы",
        "latitude": 55.8633046674,
        "longitude": 37.4485164586,
        "districtId": 1694,
        "district": "район Северное Тушино"
      },
      {
        "id": 131127,
        "name": "«Ул. Фомичевой», улица Героев Панфиловцев",
        "latitude": 55.85505679,
        "longitude": 37.43747453,
        "districtId": 1694,
        "district": "район Северное Тушино"
      },
      {
        "id": 137344,
        "name": "«Ул. Свободы, 63», улица Свободы",
        "latitude": 55.8551711,
        "longitude": 37.45124155,
        "districtId": 1694,
        "district": "район Северное Тушино"
      },
      {
        "id": 136980,
        "name": "«Захарково», улица Свободы",
        "latitude": 55.85143276,
        "longitude": 37.45213592,
        "districtId": 1689,
        "district": "район Южное Тушино"
      },
      {
        "id": 136981,
        "name": "«Парусный пр.», улица Свободы",
        "latitude": 55.84657113,
        "longitude": 37.4538549,
        "districtId": 1689,
        "district": "район Южное Тушино"
      },
      {
        "id": 129714,
        "name": "«Ул. Фабрициуса», Лодочная улица",
        "latitude": 55.8441210976,
        "longitude": 37.4570136621,
        "districtId": 1689,
        "district": "район Южное Тушино"
      },
      {
        "id": 133548,
        "name": "«Восточный мост», Лодочная улица",
        "latitude": 55.83587169,
        "longitude": 37.45327518,
        "districtId": 1689,
        "district": "район Южное Тушино"
      },
      {
        "id": 131123,
        "name": "«Ул. М. Набережная», Малая Набережная улица",
        "latitude": 55.83493304,
        "longitude": 37.45221427,
        "districtId": 1685,
        "district": "район Покровское-Стрешнево"
      },
      {
        "id": 131023,
        "name": "«Ул. Мещерякова», улица Свободы",
        "latitude": 55.83183505,
        "longitude": 37.45362987,
        "districtId": 1685,
        "district": "район Покровское-Стрешнево"
      },
      {
        "id": 133152,
        "name": "«Вишнёвая ул.», Тушинская улица",
        "latitude": 55.82705297,
        "longitude": 37.44506942,
        "districtId": 1685,
        "district": "район Покровское-Стрешнево"
      },
      {
        "id": 133151,
        "name": "«МЦД Тушинская», Тушинская улица",
        "latitude": 55.82767959,
        "longitude": 37.44197885,
        "districtId": 1685,
        "district": "район Покровское-Стрешнево"
      }
    ],
    "matchPercentage": 1
  },
  {
    "firstRoute": {
      "id": 9405,
      "number": "677К",
      "type": "Автобус"
    },
    "secondRoute": {
      "id": 9406,
      "number": "677",
      "type": "Автобус"
    },
    "stops": [
      {
        "id": 131025,
        "name": "«МЦД Лианозово», Лианозовский проезд",
        "latitude": 55.89765334,
        "longitude": 37.55313615,
        "districtId": 1746,
        "district": "район Лианозово"
      },
      {
        "id": 137389,
        "name": "«Керамический пр.», Дубнинская улица",
        "latitude": 55.8935280894,
        "longitude": 37.5575677861,
        "districtId": 1702,
        "district": "район Восточное Дегунино"
      },
      {
        "id": 137370,
        "name": "«Ин-т Стали», Дубнинская улица",
        "latitude": 55.89221605,
        "longitude": 37.55762874,
        "districtId": 1702,
        "district": "район Восточное Дегунино"
      },
      {
        "id": 137390,
        "name": "«Мкр. Дубки», Дубнинская улица",
        "latitude": 55.8881514089,
        "longitude": 37.5576739643,
        "districtId": 1702,
        "district": "район Восточное Дегунино"
      },
      {
        "id": 137367,
        "name": "«Баскетбольная школа», Дубнинская улица",
        "latitude": 55.88068293,
        "longitude": 37.55775278,
        "districtId": 1702,
        "district": "район Восточное Дегунино"
      },
      {
        "id": 138390,
        "name": "«Дубнинская ул., 28», Дубнинская улица",
        "latitude": 55.8760193,
        "longitude": 37.55745101,
        "districtId": 1703,
        "district": "Бескудниковский район"
      },
      {
        "id": 138391,
        "name": "«Дубнинская ул., 20», Дубнинская улица",
        "latitude": 55.87116997,
        "longitude": 37.56037609,
        "districtId": 1703,
        "district": "Бескудниковский район"
      },
      {
        "id": 129669,
        "name": "«Школа искусств», улица Логвиненко",
        "latitude": 55.98395871,
        "longitude": 37.16040011,
        "districtId": 1646,
        "district": "район Крюково"
      },
      {
        "id": 133389,
        "name": "«АТС», Дегунинский проезд",
        "latitude": 55.86333465,
        "longitude": 37.56535188,
        "districtId": 1702,
        "district": "район Восточное Дегунино"
      },
      {
        "id": 130073,
        "name": "«Дубнинская ул., 8», Дубнинская улица",
        "latitude": 55.8606570265,
        "longitude": 37.5680415975,
        "districtId": 1702,
        "district": "район Восточное Дегунино"
      },
      {
        "id": 130118,
        "name": "«Дубнинская ул., 2», Дубнинская улица",
        "latitude": 55.85728261,
        "longitude": 37.56749193,
        "districtId": 1702,
        "district": "район Восточное Дегунино"
      },
      {
        "id": 133175,
        "name": "«17-й автобусный парк», Старопокровский проезд",
        "latitude": 55.61059,
        "longitude": 37.61723167,
        "districtId": 1735,
        "district": "район Чертаново Центральное"
      },
      {
        "id": 134215,
        "name": "«3-й Нижнелихоборский пр.», 3-й Нижнелихоборский проезд",
        "latitude": 55.84618591,
        "longitude": 37.56934556,
        "districtId": 1705,
        "district": "Тимирязевский район"
      }
    ],
    "matchPercentage": 0.8387096774193549
  },
  {
    "firstRoute": {
      "id": 9417,
      "number": "736",
      "type": "Автобус"
    },
    "secondRoute": {
      "id": 10216,
      "number": "292",
      "type": "Автобус"
    },
    "stops": [
      {
        "id": 132995,
        "name": "«Курьяновский терминал», Проектируемый проезд № 1481",
        "latitude": 55.65088368,
        "longitude": 37.68357657,
        "districtId": 1615,
        "district": "район Печатники"
      },
      {
        "id": 132973,
        "name": "«Пр. пр. № 1481», Проектируемый проезд № 1481",
        "latitude": 55.65164643,
        "longitude": 37.68855382,
        "districtId": 1615,
        "district": "район Печатники"
      },
      {
        "id": 129890,
        "name": "«Автобаза», проспект Генерала Алексеева",
        "latitude": 56.01042123,
        "longitude": 37.16201513,
        "districtId": 1651,
        "district": "район Силино"
      },
      {
        "id": 138480,
        "name": "«Курьяновский бульвар - МЦД Курьяново», Шоссейная улица",
        "latitude": 55.6529151352,
        "longitude": 37.7048716976,
        "districtId": 1615,
        "district": "район Печатники"
      },
      {
        "id": 133352,
        "name": "«1-й Курьяновский пр.», Шоссейная улица",
        "latitude": 55.65575612,
        "longitude": 37.7079302,
        "districtId": 1615,
        "district": "район Печатники"
      },
      {
        "id": 133350,
        "name": "«Батюнинская улица», Шоссейная улица",
        "latitude": 55.65965744,
        "longitude": 37.7111481,
        "districtId": 1615,
        "district": "район Печатники"
      },
      {
        "id": 131696,
        "name": "«МЦД Перерва», Иловайская улица",
        "latitude": 55.66020646,
        "longitude": 37.72074799,
        "districtId": 1611,
        "district": "район Люблино"
      },
      {
        "id": 131697,
        "name": "«Технологический колледж», улица Полбина",
        "latitude": 55.66691221,
        "longitude": 37.72144231,
        "districtId": 1615,
        "district": "район Печатники"
      },
      {
        "id": 140989,
        "name": "«Николо-Перервинский монастырь», Шоссейная улица",
        "latitude": 55.67017157,
        "longitude": 37.72052434,
        "districtId": 1615,
        "district": "район Печатники"
      },
      {
        "id": 140990,
        "name": "«Шоссейная ул., 51», Шоссейная улица",
        "latitude": 55.67396031,
        "longitude": 37.7231029,
        "districtId": 1615,
        "district": "район Печатники"
      },
      {
        "id": 129614,
        "name": "«4-й Новомихалковский пр. - Поликлиника № 159», 4-й Новомихалковский проезд",
        "latitude": 55.84075235,
        "longitude": 37.54506468,
        "districtId": 1706,
        "district": "район Коптево"
      },
      {
        "id": 132369,
        "name": "«Продмаг», Батайский проезд",
        "latitude": 55.64338601,
        "longitude": 37.74424797,
        "districtId": 1616,
        "district": "район Марьино"
      },
      {
        "id": 132345,
        "name": "«Ул. Кухмистерова», улица Кухмистерова",
        "latitude": 55.68548087,
        "longitude": 37.72296801,
        "districtId": 1615,
        "district": "район Печатники"
      },
      {
        "id": 138913,
        "name": "«Шоссейная ул., 5», Шоссейная улица",
        "latitude": 55.68979976,
        "longitude": 37.72646069,
        "districtId": 1615,
        "district": "район Печатники"
      },
      {
        "id": 130895,
        "name": "«Поликлиника № 109», улица Гурьянова",
        "latitude": 55.6919575,
        "longitude": 37.72203748,
        "districtId": 1615,
        "district": "район Печатники"
      },
      {
        "id": 130987,
        "name": "«Лицей», улица Молодцова",
        "latitude": 55.87813605,
        "longitude": 37.64162702,
        "districtId": 1739,
        "district": "район Северное Медведково"
      }
    ],
    "matchPercentage": 0.64
  },
  {
    "firstRoute": {
      "id": 9425,
      "number": "718",
      "type": "Автобус"
    },
    "secondRoute": {
      "id": 9563,
      "number": "66",
      "type": "Автобус"
    },
    "stops": [
      {
        "id": 131760,
        "name": "«14-й автобусный парк», Озёрная улица",
        "latitude": 55.66558243,
        "longitude": 37.44068215,
        "districtId": 1749,
        "district": "район Очаково-Матвеевское"
      },
      {
        "id": 129638,
        "name": "«Никулинская ул., 12», Никулинский проезд",
        "latitude": 55.67010963,
        "longitude": 37.46894459,
        "districtId": 1725,
        "district": "район Тропарёво-Никулино"
      },
      {
        "id": 131232,
        "name": "«2-й микрорайон Тропарёва-Никулино», улица Покрышкина",
        "latitude": 55.6649039,
        "longitude": 37.46825266,
        "districtId": 1725,
        "district": "район Тропарёво-Никулино"
      },
      {
        "id": 131231,
        "name": "«Академия при Президенте РФ», улица Покрышкина",
        "latitude": 55.6641181,
        "longitude": 37.47661965,
        "districtId": 1725,
        "district": "район Тропарёво-Никулино"
      },
      {
        "id": 131535,
        "name": "«Просп. Вернадского, 113», проспект Вернадского",
        "latitude": 55.6594982,
        "longitude": 37.48110251,
        "districtId": 1725,
        "district": "район Тропарёво-Никулино"
      },
      {
        "id": 130222,
        "name": "«43-й кв. Юго-Запада», улица Островитянова",
        "latitude": 55.64696675,
        "longitude": 37.48443221,
        "districtId": 1617,
        "district": "район Тёплый Стан"
      },
      {
        "id": 131801,
        "name": "«Мед. Университет», улица Академика Бакулева",
        "latitude": 55.64425087,
        "longitude": 37.49144075,
        "districtId": 1617,
        "district": "район Тёплый Стан"
      },
      {
        "id": 131802,
        "name": "«Ул. Акад. Бакулева», улица Академика Бакулева",
        "latitude": 55.64285453,
        "longitude": 37.48874732,
        "districtId": 1617,
        "district": "район Тёплый Стан"
      },
      {
        "id": 131803,
        "name": "«Ул. Акад. Бакулева, 10», улица Академика Бакулева",
        "latitude": 55.64108229,
        "longitude": 37.48478919,
        "districtId": 1617,
        "district": "район Тёплый Стан"
      },
      {
        "id": 131469,
        "name": "«9-й мкр. Теплого Стана», Ленинский проспект",
        "latitude": 55.64785798,
        "longitude": 37.47832061,
        "districtId": 1725,
        "district": "район Тропарёво-Никулино"
      }
    ],
    "matchPercentage": 0.6666666666666666
  },
  {
    "firstRoute": {
      "id": 9426,
      "number": "716",
      "type": "Автобус"
    },
    "secondRoute": {
      "id": 9997,
      "number": "Т41",
      "type": "Автобус"
    },
    "stops": [
      {
        "id": 133747,
        "name": "«Клуб Русакова - Театр Романа Виктюка», улица Стромынка",
        "latitude": 55.7915437867,
        "longitude": 37.6863729457,
        "districtId": 1740,
        "district": "район Сокольники"
      },
      {
        "id": 132937,
        "name": "«Ул. Короленко - Социальный Университет», 1-я Боевская улица",
        "latitude": 55.79302234,
        "longitude": 37.69171974,
        "districtId": 1740,
        "district": "район Сокольники"
      },
      {
        "id": 133745,
        "name": "«Трамв. депо им. Русакова», улица Стромынка",
        "latitude": 55.79432769,
        "longitude": 37.69862489,
        "districtId": 1740,
        "district": "район Сокольники"
      },
      {
        "id": 130840,
        "name": "«Метро Преображенская пл.», Большая Черкизовская улица",
        "latitude": 55.79642091,
        "longitude": 37.71644657,
        "districtId": 1627,
        "district": "район Преображенское"
      },
      {
        "id": 133816,
        "name": "«Зельев пер.», Большая Черкизовская улица",
        "latitude": 55.79771108,
        "longitude": 37.72473853,
        "districtId": 1627,
        "district": "район Преображенское"
      },
      {
        "id": 131086,
        "name": "«Халтуринская ул.», Халтуринская улица",
        "latitude": 55.79907296,
        "longitude": 37.72904693,
        "districtId": 1627,
        "district": "район Преображенское"
      },
      {
        "id": 133910,
        "name": "«Дворец творчества», Большая Черкизовская улица",
        "latitude": 55.79914795,
        "longitude": 37.73482777,
        "districtId": 1627,
        "district": "район Преображенское"
      },
      {
        "id": 133416,
        "name": "«РЖД Арена», Большая Черкизовская улица",
        "latitude": 55.80001036,
        "longitude": 37.740052,
        "districtId": 1627,
        "district": "район Преображенское"
      },
      {
        "id": 129853,
        "name": "«Восточный вокзал», Щёлковское шоссе",
        "latitude": 55.80206241,
        "longitude": 37.74964193,
        "districtId": 1639,
        "district": "район Гольяново"
      },
      {
        "id": 136449,
        "name": "«37-й квартал Измайлова», Щёлковское шоссе",
        "latitude": 55.80378443,
        "longitude": 37.75854367,
        "districtId": 1638,
        "district": "район Северное Измайлово"
      },
      {
        "id": 138452,
        "name": "«Сиреневый сад», Щёлковское шоссе",
        "latitude": 55.80529262,
        "longitude": 37.76185647,
        "districtId": 1639,
        "district": "район Гольяново"
      },
      {
        "id": 136468,
        "name": "«Калошино», Щёлковское шоссе",
        "latitude": 55.80705579,
        "longitude": 37.76940256,
        "districtId": 1639,
        "district": "район Гольяново"
      },
      {
        "id": 133178,
        "name": "«Монтажная ул.», Открытое шоссе",
        "latitude": 55.82451206,
        "longitude": 37.75851971,
        "districtId": 1632,
        "district": "район Метрогородок"
      },
      {
        "id": 136315,
        "name": "«3-я Парковая ул.», Первомайская улица",
        "latitude": 55.79274107,
        "longitude": 37.78345538,
        "districtId": 1640,
        "district": "район Измайлово"
      },
      {
        "id": 131637,
        "name": "«15-я Парковая ул.», 15-я Парковая улица",
        "latitude": 55.80734358,
        "longitude": 37.81800067,
        "districtId": 1638,
        "district": "район Северное Измайлово"
      },
      {
        "id": 130173,
        "name": "«Чусовская ул.», Чусовская улица",
        "latitude": 55.81231593,
        "longitude": 37.81214265,
        "districtId": 1639,
        "district": "район Гольяново"
      },
      {
        "id": 139977,
        "name": "«Новосибирская ул.», Щёлковское шоссе",
        "latitude": 55.81214188,
        "longitude": 37.8220399,
        "districtId": 1639,
        "district": "район Гольяново"
      },
      {
        "id": 131667,
        "name": "«Хабаровская ул.», Щёлковское шоссе",
        "latitude": 55.8123814,
        "longitude": 37.82665832,
        "districtId": 1638,
        "district": "район Северное Измайлово"
      }
    ],
    "matchPercentage": 0.6666666666666666
  },
  {
    "firstRoute": {
      "id": 9426,
      "number": "716",
      "type": "Автобус"
    },
    "secondRoute": {
      "id": 10198,
      "number": "Т83",
      "type": "Автобус"
    },
    "stops": [
      {
        "id": 133816,
        "name": "«Зельев пер.», Большая Черкизовская улица",
        "latitude": 55.79771108,
        "longitude": 37.72473853,
        "districtId": 1627,
        "district": "район Преображенское"
      },
      {
        "id": 131086,
        "name": "«Халтуринская ул.», Халтуринская улица",
        "latitude": 55.79907296,
        "longitude": 37.72904693,
        "districtId": 1627,
        "district": "район Преображенское"
      },
      {
        "id": 133910,
        "name": "«Дворец творчества», Большая Черкизовская улица",
        "latitude": 55.79914795,
        "longitude": 37.73482777,
        "districtId": 1627,
        "district": "район Преображенское"
      },
      {
        "id": 133416,
        "name": "«РЖД Арена», Большая Черкизовская улица",
        "latitude": 55.80001036,
        "longitude": 37.740052,
        "districtId": 1627,
        "district": "район Преображенское"
      },
      {
        "id": 129853,
        "name": "«Восточный вокзал», Щёлковское шоссе",
        "latitude": 55.80206241,
        "longitude": 37.74964193,
        "districtId": 1639,
        "district": "район Гольяново"
      },
      {
        "id": 136449,
        "name": "«37-й квартал Измайлова», Щёлковское шоссе",
        "latitude": 55.80378443,
        "longitude": 37.75854367,
        "districtId": 1638,
        "district": "район Северное Измайлово"
      },
      {
        "id": 138452,
        "name": "«Сиреневый сад», Щёлковское шоссе",
        "latitude": 55.80529262,
        "longitude": 37.76185647,
        "districtId": 1639,
        "district": "район Гольяново"
      },
      {
        "id": 136468,
        "name": "«Калошино», Щёлковское шоссе",
        "latitude": 55.80705579,
        "longitude": 37.76940256,
        "districtId": 1639,
        "district": "район Гольяново"
      },
      {
        "id": 133178,
        "name": "«Монтажная ул.», Открытое шоссе",
        "latitude": 55.82451206,
        "longitude": 37.75851971,
        "districtId": 1632,
        "district": "район Метрогородок"
      },
      {
        "id": 136315,
        "name": "«3-я Парковая ул.», Первомайская улица",
        "latitude": 55.79274107,
        "longitude": 37.78345538,
        "districtId": 1640,
        "district": "район Измайлово"
      },
      {
        "id": 131637,
        "name": "«15-я Парковая ул.», 15-я Парковая улица",
        "latitude": 55.80734358,
        "longitude": 37.81800067,
        "districtId": 1638,
        "district": "район Северное Измайлово"
      },
      {
        "id": 130173,
        "name": "«Чусовская ул.», Чусовская улица",
        "latitude": 55.81231593,
        "longitude": 37.81214265,
        "districtId": 1639,
        "district": "район Гольяново"
      },
      {
        "id": 139977,
        "name": "«Новосибирская ул.», Щёлковское шоссе",
        "latitude": 55.81214188,
        "longitude": 37.8220399,
        "districtId": 1639,
        "district": "район Гольяново"
      },
      {
        "id": 131667,
        "name": "«Хабаровская ул.», Щёлковское шоссе",
        "latitude": 55.8123814,
        "longitude": 37.82665832,
        "districtId": 1638,
        "district": "район Северное Измайлово"
      }
    ],
    "matchPercentage": 0.6086956521739131
  },
  {
    "firstRoute": {
      "id": 9434,
      "number": "752",
      "type": "Автобус"
    },
    "secondRoute": {
      "id": 10242,
      "number": "374",
      "type": "Автобус"
    },
    "stops": [
      {
        "id": 131628,
        "name": "«Ул. Миклухо-Маклая, 20», улица Миклухо-Маклая",
        "latitude": 55.64439028,
        "longitude": 37.52148177,
        "districtId": 1630,
        "district": "район Коньково"
      },
      {
        "id": 131627,
        "name": "«Ул. Архитектора Белопольского», улица Миклухо-Маклая",
        "latitude": 55.64584817,
        "longitude": 37.51806601,
        "districtId": 1630,
        "district": "район Коньково"
      },
      {
        "id": 131772,
        "name": "«Ул. Акад. Волгина - Геологоразведочный Университет», улица Миклухо-Маклая",
        "latitude": 55.6473973,
        "longitude": 37.51441576,
        "districtId": 1630,
        "district": "район Коньково"
      },
      {
        "id": 138886,
        "name": "«Мед. Факультет», улица Миклухо-Маклая",
        "latitude": 55.65085351,
        "longitude": 37.506351444,
        "districtId": 1732,
        "district": "Обручевский район"
      },
      {
        "id": 138888,
        "name": "«Ул. Миклухо-Маклая - Университет дружбы народов», улица Миклухо-Маклая",
        "latitude": 55.65278899,
        "longitude": 37.50173962,
        "districtId": 1732,
        "district": "Обручевский район"
      },
      {
        "id": 135598,
        "name": "«Улица 26 Бакинских Комиссаров», улица 26-ти Бакинских Комиссаров",
        "latitude": 55.65668976,
        "longitude": 37.49278295,
        "districtId": 1725,
        "district": "район Тропарёво-Никулино"
      },
      {
        "id": 135519,
        "name": "«Ул. 26-ти Бакинских Комиссаров, 3», улица 26-ти Бакинских Комиссаров",
        "latitude": 55.65808524,
        "longitude": 37.49042786,
        "districtId": 1725,
        "district": "район Тропарёво-Никулино"
      },
      {
        "id": 131231,
        "name": "«Академия при Президенте РФ», улица Покрышкина",
        "latitude": 55.6641181,
        "longitude": 37.47661965,
        "districtId": 1725,
        "district": "район Тропарёво-Никулино"
      },
      {
        "id": 131236,
        "name": "«Улица Покрышкина», улица Покрышкина",
        "latitude": 55.6648119,
        "longitude": 37.4712543,
        "districtId": 1725,
        "district": "район Тропарёво-Никулино"
      },
      {
        "id": 131232,
        "name": "«2-й микрорайон Тропарёва-Никулино», улица Покрышкина",
        "latitude": 55.6649039,
        "longitude": 37.46825266,
        "districtId": 1725,
        "district": "район Тропарёво-Никулино"
      },
      {
        "id": 129981,
        "name": "«Метро Озерная», Никулинская улица",
        "latitude": 55.67146919,
        "longitude": 37.4500291,
        "districtId": 1749,
        "district": "район Очаково-Матвеевское"
      },
      {
        "id": 131760,
        "name": "«14-й автобусный парк», Озёрная улица",
        "latitude": 55.66558243,
        "longitude": 37.44068215,
        "districtId": 1749,
        "district": "район Очаково-Матвеевское"
      },
      {
        "id": 130906,
        "name": "«Востряковское кладб.», Боровское шоссе",
        "latitude": 55.6618953895,
        "longitude": 37.4422247206,
        "districtId": 1725,
        "district": "район Тропарёво-Никулино"
      },
      {
        "id": 130186,
        "name": "«Мещерский лес», Боровское шоссе",
        "latitude": 55.660974792623904,
        "longitude": 37.42644752781932,
        "districtId": 1664,
        "district": "поселение Московский"
      },
      {
        "id": 131382,
        "name": "«Улица 50 лет Октября», улица 50 лет Октября",
        "latitude": 55.65866214,
        "longitude": 37.41198163,
        "districtId": 1665,
        "district": "район Солнцево"
      },
      {
        "id": 131408,
        "name": "«Ул. Главмосстроя», Боровское шоссе",
        "latitude": 55.65915008,
        "longitude": 37.40636299,
        "districtId": 1665,
        "district": "район Солнцево"
      }
    ],
    "matchPercentage": 0.6530612244897959
  },
  {
    "firstRoute": {
      "id": 9435,
      "number": "750",
      "type": "Автобус"
    },
    "secondRoute": {
      "id": 9850,
      "number": "950",
      "type": "Автобус"
    },
    "stops": [
      {
        "id": 131058,
        "name": "«Попутная ул.», Попутная улица",
        "latitude": 55.65305521,
        "longitude": 37.38740634,
        "districtId": 1665,
        "district": "район Солнцево"
      },
      {
        "id": 131305,
        "name": "«Боровский пр.», Боровское шоссе",
        "latitude": 55.65152348,
        "longitude": 37.38269398,
        "districtId": 1665,
        "district": "район Солнцево"
      },
      {
        "id": 131307,
        "name": "«Боровское ш., 20», Боровское шоссе",
        "latitude": 55.64958632,
        "longitude": 37.37205904,
        "districtId": 1643,
        "district": "район Ново-Переделкино"
      },
      {
        "id": 132323,
        "name": "«9-я Чоботовская ал.», Боровское шоссе",
        "latitude": 55.64506692,
        "longitude": 37.36382311,
        "districtId": 1643,
        "district": "район Ново-Переделкино"
      },
      {
        "id": 131309,
        "name": "«Новопеределкинская ул.», Боровское шоссе",
        "latitude": 55.6429145,
        "longitude": 37.3602353,
        "districtId": 1643,
        "district": "район Ново-Переделкино"
      },
      {
        "id": 131293,
        "name": "«Боровское ш., 56», Боровское шоссе",
        "latitude": 55.63486381,
        "longitude": 37.34779572,
        "districtId": 1643,
        "district": "район Ново-Переделкино"
      },
      {
        "id": 131977,
        "name": "«Пыхтино», Боровское шоссе",
        "latitude": 55.62579599,
        "longitude": 37.29727393,
        "districtId": 1661,
        "district": "поселение Внуковское"
      },
      {
        "id": 132009,
        "name": "«Внуковское ш.», Боровское шоссе",
        "latitude": 55.61499736,
        "longitude": 37.26396284,
        "districtId": 1661,
        "district": "поселение Внуковское"
      },
      {
        "id": 130469,
        "name": "«Изваринская ул.», Боровское шоссе",
        "latitude": 55.61155022,
        "longitude": 37.2583553,
        "districtId": 1674,
        "district": "район Внуково"
      },
      {
        "id": 129980,
        "name": "«Внуковский з-д",
        "latitude": 55.60462052,
        "longitude": 37.25057118,
        "districtId": 1674,
        "district": "район Внуково"
      },
      {
        "id": 130327,
        "name": "«Постниково», Боровское шоссе",
        "latitude": 55.60070008,
        "longitude": 37.24511179,
        "districtId": 1674,
        "district": "район Внуково"
      },
      {
        "id": 130474,
        "name": "«Внуково-3», Боровское шоссе",
        "latitude": 55.59736431,
        "longitude": 37.24168862,
        "districtId": 1650,
        "district": "поселение Марушкинское"
      },
      {
        "id": 130475,
        "name": "«Садовые участки», Привольная улица",
        "latitude": 55.5933001,
        "longitude": 37.23159134,
        "districtId": 1650,
        "district": "поселение Марушкинское"
      },
      {
        "id": 130477,
        "name": "«Привольная ул.», Привольная улица",
        "latitude": 55.59391096,
        "longitude": 37.22535956,
        "districtId": 1650,
        "district": "поселение Марушкинское"
      },
      {
        "id": 134570,
        "name": "«Дачный поселок», Привольная улица",
        "latitude": 55.5953867174,
        "longitude": 37.2150034572,
        "districtId": 1650,
        "district": "поселение Марушкинское"
      },
      {
        "id": 130479,
        "name": "«Марушкино», Привольная улица",
        "latitude": 55.59611649,
        "longitude": 37.20849239,
        "districtId": 1650,
        "district": "поселение Марушкинское"
      },
      {
        "id": 129641,
        "name": "«Советская ул., 41», Советская улица",
        "latitude": 55.60181949,
        "longitude": 37.19671739,
        "districtId": 1650,
        "district": "поселение Марушкинское"
      },
      {
        "id": 130306,
        "name": "«Ст. Толстопальцево», Советская улица",
        "latitude": 55.606898581,
        "longitude": 37.1865178705,
        "districtId": 1674,
        "district": "район Внуково"
      },
      {
        "id": 130305,
        "name": "«Дер. Толстопальцево», Центральная улица",
        "latitude": 55.60461971,
        "longitude": 37.19197418,
        "districtId": 1674,
        "district": "район Внуково"
      }
    ],
    "matchPercentage": 0.6031746031746031
  },
  {
    "firstRoute": {
      "id": 9436,
      "number": "75",
      "type": "Автобус"
    },
    "secondRoute": {
      "id": 9517,
      "number": "822",
      "type": "Автобус"
    },
    "stops": [
      {
        "id": 133181,
        "name": "«Плодоовощной комбинат», Открытое шоссе",
        "latitude": 55.81762039,
        "longitude": 37.74323141,
        "districtId": 1632,
        "district": "район Метрогородок"
      },
      {
        "id": 136447,
        "name": "«Открытое ш., 26», Вербная улица",
        "latitude": 55.82659032,
        "longitude": 37.76629688,
        "districtId": 1632,
        "district": "район Метрогородок"
      },
      {
        "id": 139216,
        "name": "«Открытое ш., 19», Лосиноостровская улица",
        "latitude": 55.82457407,
        "longitude": 37.74854824,
        "districtId": 1632,
        "district": "район Метрогородок"
      },
      {
        "id": 139217,
        "name": "«Лесное хоз-во», Лосиноостровская улица",
        "latitude": 55.82792931,
        "longitude": 37.74627128,
        "districtId": 1632,
        "district": "район Метрогородок"
      },
      {
        "id": 139195,
        "name": "«Гуманитарно-экономический университет», Лосиноостровская улица",
        "latitude": 55.82695123,
        "longitude": 37.72773027,
        "districtId": 1632,
        "district": "район Метрогородок"
      },
      {
        "id": 133623,
        "name": "«РГСУ», Стромынский переулок",
        "latitude": 55.79323237,
        "longitude": 37.69449133,
        "districtId": 1740,
        "district": "район Сокольники"
      },
      {
        "id": 139193,
        "name": "«Интернат престарелых», Лосиноостровская улица",
        "latitude": 55.82634165,
        "longitude": 37.7147372,
        "districtId": 1632,
        "district": "район Метрогородок"
      },
      {
        "id": 136998,
        "name": "«Кадетский корпус», улица Маршала Тухачевского",
        "latitude": 55.7850243,
        "longitude": 37.46644221,
        "districtId": 1693,
        "district": "район Хорошёво-Мнёвники"
      },
      {
        "id": 139191,
        "name": "«Учебный центр Минздрава», Лосиноостровская улица",
        "latitude": 55.8257444218,
        "longitude": 37.6968006263,
        "districtId": 1633,
        "district": "район Богородское"
      },
      {
        "id": 133701,
        "name": "«Яузская ал., 2», Яузская аллея",
        "latitude": 55.83019625,
        "longitude": 37.67625202,
        "districtId": 1633,
        "district": "район Богородское"
      }
    ],
    "matchPercentage": 0.625
  },
  {
    "firstRoute": {
      "id": 9438,
      "number": "748",
      "type": "Автобус"
    },
    "secondRoute": {
      "id": 9529,
      "number": "857",
      "type": "Автобус"
    },
    "stops": [
      {
        "id": 132949,
        "name": "«Талдомская ул., 2», Талдомская улица",
        "latitude": 55.86936283,
        "longitude": 37.51843615,
        "districtId": 1704,
        "district": "район Западное Дегунино"
      },
      {
        "id": 138124,
        "name": "«Ин-т педиатрии им. Вельтищева», Талдомская улица",
        "latitude": 55.87278245,
        "longitude": 37.52097107,
        "districtId": 1704,
        "district": "район Западное Дегунино"
      },
      {
        "id": 137318,
        "name": "«Ул. Софьи Ковалевской», Бескудниковский бульвар",
        "latitude": 55.87554347,
        "longitude": 37.53377411,
        "districtId": 1708,
        "district": "Дмитровский район"
      },
      {
        "id": 138086,
        "name": "«Ул. 800-летия Москвы, 8», улица 800-летия Москвы",
        "latitude": 55.87716261,
        "longitude": 37.53913293,
        "districtId": 1708,
        "district": "Дмитровский район"
      },
      {
        "id": 130661,
        "name": "«Дмитровское ш., 116», Лианозовский проезд",
        "latitude": 55.90011858,
        "longitude": 37.54633283,
        "districtId": 1746,
        "district": "район Лианозово"
      },
      {
        "id": 137312,
        "name": "«Ул. 800-летия Москвы, 18», улица 800-летия Москвы",
        "latitude": 55.87947347,
        "longitude": 37.5532889,
        "districtId": 1702,
        "district": "район Восточное Дегунино"
      },
      {
        "id": 137367,
        "name": "«Баскетбольная школа», Дубнинская улица",
        "latitude": 55.88068293,
        "longitude": 37.55775278,
        "districtId": 1702,
        "district": "район Восточное Дегунино"
      },
      {
        "id": 138085,
        "name": "«Управа района Восточное Дегунино», улица 800-летия Москвы",
        "latitude": 55.88074018,
        "longitude": 37.56433557,
        "districtId": 1702,
        "district": "район Восточное Дегунино"
      },
      {
        "id": 136073,
        "name": "«МЦД Бескудниково», Инженерная улица",
        "latitude": 55.8800863598,
        "longitude": 37.5719095379,
        "districtId": 1747,
        "district": "Алтуфьевский район"
      }
    ],
    "matchPercentage": 0.6428571428571429
  },
  {
    "firstRoute": {
      "id": 9441,
      "number": "745",
      "type": "Автобус"
    },
    "secondRoute": {
      "id": 9477,
      "number": "188",
      "type": "Автобус"
    },
    "stops": [
      {
        "id": 135440,
        "name": "«Смольная ул., 29», Смольная улица",
        "latitude": 55.85879118,
        "longitude": 37.48494848,
        "districtId": 1710,
        "district": "район Ховрино"
      },
      {
        "id": 137170,
        "name": "«Ул. Лавочкина - Дворец спорта Динамо», Флотская улица",
        "latitude": 55.85318378,
        "longitude": 37.49892853,
        "districtId": 1709,
        "district": "Головинский район"
      },
      {
        "id": 137191,
        "name": "«Ул. Лавочкина, 54», улица Лавочкина",
        "latitude": 55.86313393,
        "longitude": 37.48574927,
        "districtId": 1710,
        "district": "район Ховрино"
      },
      {
        "id": 132570,
        "name": "«Ул. Дыбенко, 6», улица Дыбенко",
        "latitude": 55.86859861,
        "longitude": 37.48409012,
        "districtId": 1710,
        "district": "район Ховрино"
      },
      {
        "id": 137190,
        "name": "«Ул. Дыбенко, 16», улица Дыбенко",
        "latitude": 55.87074044,
        "longitude": 37.48347959,
        "districtId": 1710,
        "district": "район Ховрино"
      },
      {
        "id": 137187,
        "name": "«Ул. Дыбенко, 28», улица Дыбенко",
        "latitude": 55.87398254,
        "longitude": 37.48308009,
        "districtId": 1710,
        "district": "район Ховрино"
      },
      {
        "id": 135441,
        "name": "«Платф. Ховрино», Зеленоградская улица",
        "latitude": 55.87863731,
        "longitude": 37.48535187,
        "districtId": 1710,
        "district": "район Ховрино"
      },
      {
        "id": 137404,
        "name": "«Зеленоградская ул., 39», Зеленоградская улица",
        "latitude": 55.8773550191,
        "longitude": 37.4892187714,
        "districtId": 1710,
        "district": "район Ховрино"
      },
      {
        "id": 130084,
        "name": "«Почта», улица Архитектора Власова",
        "latitude": 55.66722801,
        "longitude": 37.54174546,
        "districtId": 1732,
        "district": "Обручевский район"
      },
      {
        "id": 137402,
        "name": "«Зеленоградская ул., 21», Зеленоградская улица",
        "latitude": 55.873851468,
        "longitude": 37.4973747726,
        "districtId": 1710,
        "district": "район Ховрино"
      },
      {
        "id": 132890,
        "name": "«Платф. Грачёвская",
        "latitude": 55.86969699,
        "longitude": 37.51123563,
        "districtId": 1704,
        "district": "район Западное Дегунино"
      },
      {
        "id": 130615,
        "name": "«Клинский пр.», Клинский проезд",
        "latitude": 55.86975141,
        "longitude": 37.50238972,
        "districtId": 1710,
        "district": "район Ховрино"
      },
      {
        "id": 130613,
        "name": "«Клинская ул.», Клинская улица",
        "latitude": 55.86698853,
        "longitude": 37.50102971,
        "districtId": 1710,
        "district": "район Ховрино"
      },
      {
        "id": 130612,
        "name": "«Больница - Библиотека им. Короленко», Клинская улица",
        "latitude": 55.864965797,
        "longitude": 37.5068737126,
        "districtId": 1710,
        "district": "район Ховрино"
      },
      {
        "id": 137409,
        "name": "«Фестивальная ул., 65», Фестивальная улица",
        "latitude": 55.86101472,
        "longitude": 37.49975463,
        "districtId": 1710,
        "district": "район Ховрино"
      },
      {
        "id": 137394,
        "name": "«Фестивальная ул., 14», Фестивальная улица",
        "latitude": 55.86018085,
        "longitude": 37.49617308,
        "districtId": 1710,
        "district": "район Ховрино"
      }
    ],
    "matchPercentage": 0.7804878048780488
  },
  {
    "firstRoute": {
      "id": 9443,
      "number": "741",
      "type": "Автобус"
    },
    "secondRoute": {
      "id": 9691,
      "number": "614",
      "type": "Автобус"
    },
    "stops": [
      {
        "id": 137079,
        "name": "«Сходненский тупик», Волоколамское шоссе",
        "latitude": 55.8265091918,
        "longitude": 37.426036757,
        "districtId": 1685,
        "district": "район Покровское-Стрешнево"
      },
      {
        "id": 137080,
        "name": "«15-й автобусный парк», Волоколамское шоссе",
        "latitude": 55.8286636,
        "longitude": 37.41597457,
        "districtId": 1685,
        "district": "район Покровское-Стрешнево"
      },
      {
        "id": 137081,
        "name": "«Акад. Коммунального хоз-ва», Волоколамское шоссе",
        "latitude": 55.8292762,
        "longitude": 37.41287638,
        "districtId": 1685,
        "district": "район Покровское-Стрешнево"
      },
      {
        "id": 131029,
        "name": "«МЦД Трикотажная», Волоколамское шоссе",
        "latitude": 55.83153265,
        "longitude": 37.40212818,
        "districtId": 1685,
        "district": "район Покровское-Стрешнево"
      },
      {
        "id": 131159,
        "name": "«Спас», Пятницкое шоссе",
        "latitude": 55.8330734,
        "longitude": 37.39188593,
        "districtId": 1712,
        "district": "район Митино"
      },
      {
        "id": 131270,
        "name": "«Митинская ул., 32», Митинская улица",
        "latitude": 55.84496101,
        "longitude": 37.36525874,
        "districtId": 1712,
        "district": "район Митино"
      },
      {
        "id": 131177,
        "name": "«Митинская ул., 48», Митинская улица",
        "latitude": 55.85054006,
        "longitude": 37.35469039,
        "districtId": 1712,
        "district": "район Митино"
      },
      {
        "id": 131151,
        "name": "«Ангелов пер.», Митинская улица",
        "latitude": 55.85226251,
        "longitude": 37.35348018,
        "districtId": 1712,
        "district": "район Митино"
      }
    ],
    "matchPercentage": 0.6666666666666666
  },
  {
    "firstRoute": {
      "id": 9443,
      "number": "741",
      "type": "Автобус"
    },
    "secondRoute": {
      "id": 10132,
      "number": "248",
      "type": "Автобус"
    },
    "stops": [
      {
        "id": 137079,
        "name": "«Сходненский тупик», Волоколамское шоссе",
        "latitude": 55.8265091918,
        "longitude": 37.426036757,
        "districtId": 1685,
        "district": "район Покровское-Стрешнево"
      },
      {
        "id": 137080,
        "name": "«15-й автобусный парк», Волоколамское шоссе",
        "latitude": 55.8286636,
        "longitude": 37.41597457,
        "districtId": 1685,
        "district": "район Покровское-Стрешнево"
      },
      {
        "id": 137081,
        "name": "«Акад. Коммунального хоз-ва», Волоколамское шоссе",
        "latitude": 55.8292762,
        "longitude": 37.41287638,
        "districtId": 1685,
        "district": "район Покровское-Стрешнево"
      },
      {
        "id": 131029,
        "name": "«МЦД Трикотажная», Волоколамское шоссе",
        "latitude": 55.83153265,
        "longitude": 37.40212818,
        "districtId": 1685,
        "district": "район Покровское-Стрешнево"
      },
      {
        "id": 131159,
        "name": "«Спас», Пятницкое шоссе",
        "latitude": 55.8330734,
        "longitude": 37.39188593,
        "districtId": 1712,
        "district": "район Митино"
      }
    ],
    "matchPercentage": 0.6666666666666666
  },
  {
    "firstRoute": {
      "id": 9444,
      "number": "737",
      "type": "Автобус"
    },
    "secondRoute": {
      "id": 9488,
      "number": "108",
      "type": "Автобус"
    },
    "stops": [
      {
        "id": 130241,
        "name": "«Коктебельская улица», Коктебельская улица",
        "latitude": 55.56882357,
        "longitude": 37.59353405,
        "districtId": 1663,
        "district": "район Северное Бутово"
      },
      {
        "id": 129759,
        "name": "«Ул. Грина, 42», Куликовская улица",
        "latitude": 55.56990322,
        "longitude": 37.5632305,
        "districtId": 1663,
        "district": "район Северное Бутово"
      },
      {
        "id": 130185,
        "name": "«Ул. Грина, 20», улица Грина",
        "latitude": 55.56479451,
        "longitude": 37.57846714,
        "districtId": 1663,
        "district": "район Северное Бутово"
      },
      {
        "id": 132240,
        "name": "«Варшавское ш., 190», Варшавское шоссе",
        "latitude": 55.55070495,
        "longitude": 37.58652515,
        "districtId": 1666,
        "district": "район Южное Бутово"
      },
      {
        "id": 132242,
        "name": "«Б. Бутовская ул.», Варшавское шоссе",
        "latitude": 55.54630817,
        "longitude": 37.58577108,
        "districtId": 1666,
        "district": "район Южное Бутово"
      },
      {
        "id": 129669,
        "name": "«Школа искусств», улица Логвиненко",
        "latitude": 55.98395871,
        "longitude": 37.16040011,
        "districtId": 1646,
        "district": "район Крюково"
      },
      {
        "id": 132060,
        "name": "«МЦД Бутово», 1-й Миргородский переулок",
        "latitude": 55.53960886,
        "longitude": 37.56921534,
        "districtId": 1666,
        "district": "район Южное Бутово"
      },
      {
        "id": 131939,
        "name": "«2-я Мелитопольская ул.», Мелитопольский проезд",
        "latitude": 55.54025534,
        "longitude": 37.57345828,
        "districtId": 1666,
        "district": "район Южное Бутово"
      },
      {
        "id": 129614,
        "name": "«4-й Новомихалковский пр. - Поликлиника № 159», 4-й Новомихалковский проезд",
        "latitude": 55.84075235,
        "longitude": 37.54506468,
        "districtId": 1706,
        "district": "район Коптево"
      },
      {
        "id": 130651,
        "name": "«МЦД Щербинка», улица 40 лет Октября",
        "latitude": 55.51088939,
        "longitude": 37.56551722,
        "districtId": 1653,
        "district": "поселение Щербинка"
      },
      {
        "id": 130908,
        "name": "«Поворот на Милицейский пос.», Варшавское шоссе",
        "latitude": 55.51204071,
        "longitude": 37.57593614,
        "districtId": 1666,
        "district": "район Южное Бутово"
      }
    ],
    "matchPercentage": 0.6111111111111112
  },
  {
    "firstRoute": {
      "id": 9445,
      "number": "851",
      "type": "Автобус"
    },
    "secondRoute": {
      "id": 9520,
      "number": "865",
      "type": "Автобус"
    },
    "stops": [
      {
        "id": 130271,
        "name": "«23-й км.», Калужское шоссе",
        "latitude": 55.58836261,
        "longitude": 37.47490218,
        "districtId": 1668,
        "district": "поселение Сосенское"
      },
      {
        "id": 132132,
        "name": "«Платф. Молжаниново», Ленинградское шоссе",
        "latitude": 55.92610289,
        "longitude": 37.38535436,
        "districtId": 1676,
        "district": "Молжаниновский район"
      },
      {
        "id": 131955,
        "name": "«Молжаниновка», Ленинградское шоссе",
        "latitude": 55.93434075,
        "longitude": 37.37315021,
        "districtId": 1676,
        "district": "Молжаниновский район"
      },
      {
        "id": 131956,
        "name": "«Новоподрезково», Ленинградское шоссе",
        "latitude": 55.94167864,
        "longitude": 37.36275659,
        "districtId": 1676,
        "district": "Молжаниновский район"
      },
      {
        "id": 131957,
        "name": "«Черкизово», Ленинградское шоссе",
        "latitude": 55.94906178,
        "longitude": 37.35235089,
        "districtId": 1676,
        "district": "Молжаниновский район"
      }
    ],
    "matchPercentage": 0.6666666666666666
  },
  {
    "firstRoute": {
      "id": 9445,
      "number": "851",
      "type": "Автобус"
    },
    "secondRoute": {
      "id": 9796,
      "number": "400",
      "type": "Автобус"
    },
    "stops": [
      {
        "id": 131327,
        "name": "«Беломорская ул.», Ленинградское шоссе",
        "latitude": 55.86407204,
        "longitude": 37.46391541,
        "districtId": 1711,
        "district": "район Левобережный"
      },
      {
        "id": 133883,
        "name": "«Канал им. Москвы», Волоколамское шоссе",
        "latitude": 55.81921573,
        "longitude": 37.45101912,
        "districtId": 1685,
        "district": "район Покровское-Стрешнево"
      },
      {
        "id": 138282,
        "name": "«Химкинская б-ца», Ленинградское шоссе",
        "latitude": 55.87867959,
        "longitude": 37.44809228,
        "districtId": 1711,
        "district": "район Левобережный"
      },
      {
        "id": 130271,
        "name": "«23-й км.», Калужское шоссе",
        "latitude": 55.58836261,
        "longitude": 37.47490218,
        "districtId": 1668,
        "district": "поселение Сосенское"
      },
      {
        "id": 132132,
        "name": "«Платф. Молжаниново», Ленинградское шоссе",
        "latitude": 55.92610289,
        "longitude": 37.38535436,
        "districtId": 1676,
        "district": "Молжаниновский район"
      },
      {
        "id": 131955,
        "name": "«Молжаниновка», Ленинградское шоссе",
        "latitude": 55.93434075,
        "longitude": 37.37315021,
        "districtId": 1676,
        "district": "Молжаниновский район"
      },
      {
        "id": 131956,
        "name": "«Новоподрезково», Ленинградское шоссе",
        "latitude": 55.94167864,
        "longitude": 37.36275659,
        "districtId": 1676,
        "district": "Молжаниновский район"
      },
      {
        "id": 131957,
        "name": "«Черкизово», Ленинградское шоссе",
        "latitude": 55.94906178,
        "longitude": 37.35235089,
        "districtId": 1676,
        "district": "Молжаниновский район"
      }
    ],
    "matchPercentage": 0.6153846153846154
  },
  {
    "firstRoute": {
      "id": 9465,
      "number": "875",
      "type": "Автобус"
    },
    "secondRoute": {
      "id": 10235,
      "number": "304",
      "type": "Автобус"
    },
    "stops": [
      {
        "id": 129688,
        "name": "«Фабричная пл.», Большая Октябрьская улица",
        "latitude": 55.49068572,
        "longitude": 37.30107366,
        "districtId": 1670,
        "district": "поселение Троицк"
      },
      {
        "id": 129689,
        "name": "«Ботаково», шоссе 46к-1022",
        "latitude": 55.50208994,
        "longitude": 37.2843488,
        "districtId": 1645,
        "district": "поселение Первомайское"
      },
      {
        "id": 135182,
        "name": "«Складское хозяйство», Проектируемый проезд № 7040",
        "latitude": 55.50311237,
        "longitude": 37.27612293,
        "districtId": 1645,
        "district": "поселение Первомайское"
      },
      {
        "id": 129690,
        "name": "«Хутор», Проектируемый проезд № 7040",
        "latitude": 55.50271813,
        "longitude": 37.26857344,
        "districtId": 1645,
        "district": "поселение Первомайское"
      },
      {
        "id": 134508,
        "name": "«Пос. Светлый», Проектируемый проезд № 7040",
        "latitude": 55.50595345,
        "longitude": 37.26017476,
        "districtId": 1645,
        "district": "поселение Первомайское"
      },
      {
        "id": 129691,
        "name": "«Кладбище Губцево», проезд без названия",
        "latitude": 55.51398372,
        "longitude": 37.24027298,
        "districtId": 1645,
        "district": "поселение Первомайское"
      },
      {
        "id": 131046,
        "name": "«Поворот на Ширяево», Проектируемый проезд № 7040",
        "latitude": 55.50894466,
        "longitude": 37.25027244,
        "districtId": 1645,
        "district": "поселение Первомайское"
      },
      {
        "id": 135154,
        "name": "«Производственный комплекс», Проектируемый проезд № 7040",
        "latitude": 55.51131385,
        "longitude": 37.24387326,
        "districtId": 1645,
        "district": "поселение Первомайское"
      },
      {
        "id": 134423,
        "name": "«Поповка», Дорожная улица",
        "latitude": 55.51406499,
        "longitude": 37.22916146,
        "districtId": 1645,
        "district": "поселение Первомайское"
      },
      {
        "id": 129693,
        "name": "«Пос. Птичное», Дорожная улица",
        "latitude": 55.51450049,
        "longitude": 37.22638689,
        "districtId": 1645,
        "district": "поселение Первомайское"
      },
      {
        "id": 129694,
        "name": "«Торговый центр», Центральная улица",
        "latitude": 55.52071923,
        "longitude": 37.2196553,
        "districtId": 1645,
        "district": "поселение Первомайское"
      },
      {
        "id": 129695,
        "name": "«Заречная ул.», Центральная улица",
        "latitude": 55.52406786,
        "longitude": 37.21981825,
        "districtId": 1645,
        "district": "поселение Первомайское"
      },
      {
        "id": 129696,
        "name": "«Липовая ул.», Центральная улица",
        "latitude": 55.5280121741,
        "longitude": 37.2200057285,
        "districtId": 1645,
        "district": "поселение Первомайское"
      },
      {
        "id": 129629,
        "name": "«Дубрава», улица Александра Печерского",
        "latitude": 55.5343144187,
        "longitude": 37.2113896502,
        "districtId": 1645,
        "district": "поселение Первомайское"
      },
      {
        "id": 135146,
        "name": "«Поворот на Горчаково», улица Александра Печерского",
        "latitude": 55.53539998,
        "longitude": 37.20404147,
        "districtId": 1645,
        "district": "поселение Первомайское"
      },
      {
        "id": 129683,
        "name": "«Рогозинино-1», улица Александра Печерского",
        "latitude": 55.5372218,
        "longitude": 37.19981882,
        "districtId": 1645,
        "district": "поселение Первомайское"
      },
      {
        "id": 135144,
        "name": "«Рогозинино-2», улица Александра Печерского",
        "latitude": 55.54020985,
        "longitude": 37.19076487,
        "districtId": 1645,
        "district": "поселение Первомайское"
      },
      {
        "id": 129702,
        "name": "«Жилой комплекс», улица Александра Печерского",
        "latitude": 55.54068992,
        "longitude": 37.18493466,
        "districtId": 1645,
        "district": "поселение Первомайское"
      },
      {
        "id": 135142,
        "name": "«Весенино-1», улица Александра Печерского",
        "latitude": 55.54240038,
        "longitude": 37.17772468,
        "districtId": 1645,
        "district": "поселение Первомайское"
      },
      {
        "id": 135140,
        "name": "«Весенино-2», улица Александра Печерского",
        "latitude": 55.54410121,
        "longitude": 37.16976061,
        "districtId": 1645,
        "district": "поселение Первомайское"
      },
      {
        "id": 132922,
        "name": "«Ивановское",
        "latitude": 55.76726564,
        "longitude": 37.83933968,
        "districtId": 1608,
        "district": "район Ивановское"
      }
    ],
    "matchPercentage": 0.6666666666666666
  },
  {
    "firstRoute": {
      "id": 9466,
      "number": "874К",
      "type": "Автобус"
    },
    "secondRoute": {
      "id": 9504,
      "number": "871",
      "type": "Автобус"
    },
    "stops": [
      {
        "id": 129687,
        "name": "«Камвольная фабрика», улица Текстильщиков",
        "latitude": 55.49145689,
        "longitude": 37.31280631,
        "districtId": 1670,
        "district": "поселение Троицк"
      },
      {
        "id": 132490,
        "name": "«38-й км.», Калужское шоссе",
        "latitude": 55.48700304,
        "longitude": 37.32405389,
        "districtId": 1669,
        "district": "поселение Десеновское"
      },
      {
        "id": 132489,
        "name": "«ИЗМИРАН», Калужское шоссе",
        "latitude": 55.4762071,
        "longitude": 37.31580124,
        "districtId": 1670,
        "district": "поселение Троицк"
      },
      {
        "id": 130395,
        "name": "«Центральная ул.», Центральная улица",
        "latitude": 55.47437281,
        "longitude": 37.30713864,
        "districtId": 1670,
        "district": "поселение Троицк"
      },
      {
        "id": 129614,
        "name": "«4-й Новомихалковский пр. - Поликлиника № 159», 4-й Новомихалковский проезд",
        "latitude": 55.84075235,
        "longitude": 37.54506468,
        "districtId": 1706,
        "district": "район Коптево"
      },
      {
        "id": 130426,
        "name": "«Сиреневый бульв.», Центральная улица",
        "latitude": 55.46865869,
        "longitude": 37.29843075,
        "districtId": 1670,
        "district": "поселение Троицк"
      },
      {
        "id": 130428,
        "name": "«Троицкая роща», Центральная улица",
        "latitude": 55.46617154,
        "longitude": 37.29474148,
        "districtId": 1670,
        "district": "поселение Троицк"
      },
      {
        "id": 129938,
        "name": "«41-й км.», улица Конструктора Гуськова",
        "latitude": 56.01656533,
        "longitude": 37.19437688,
        "districtId": 1649,
        "district": "район Матушкино"
      }
    ],
    "matchPercentage": 0.6666666666666666
  },
  {
    "firstRoute": {
      "id": 9470,
      "number": "890",
      "type": "Автобус"
    },
    "secondRoute": {
      "id": 9679,
      "number": "189",
      "type": "Автобус"
    },
    "stops": [
      {
        "id": 133768,
        "name": "«3-й мкр. Московского",
        "latitude": 55.59525237,
        "longitude": 37.34926298,
        "districtId": 1664,
        "district": "поселение Московский"
      },
      {
        "id": 134536,
        "name": "«Центр спорта», Проектируемый проезд № 5562",
        "latitude": 55.59855664,
        "longitude": 37.34799935,
        "districtId": 1664,
        "district": "поселение Московский"
      },
      {
        "id": 134513,
        "name": "«Школа профсоюзов», Проектируемый проезд № 5258",
        "latitude": 55.60073218,
        "longitude": 37.35009835,
        "districtId": 1664,
        "district": "поселение Московский"
      },
      {
        "id": 134505,
        "name": "«1-й мкр. Московского», Проектируемый проезд № 5258",
        "latitude": 55.60292147,
        "longitude": 37.34824562,
        "districtId": 1664,
        "district": "поселение Московский"
      },
      {
        "id": 129917,
        "name": "«Дворец культуры», Московский проспект",
        "latitude": 55.9916191,
        "longitude": 37.22456277,
        "districtId": 1648,
        "district": "район Савёлки"
      },
      {
        "id": 135403,
        "name": "«Ул. Никитина», улица Никитина",
        "latitude": 55.60571864,
        "longitude": 37.35931648,
        "districtId": 1664,
        "district": "поселение Московский"
      }
    ],
    "matchPercentage": 0.631578947368421
  },
  {
    "firstRoute": {
      "id": 9470,
      "number": "890",
      "type": "Автобус"
    },
    "secondRoute": {
      "id": 9797,
      "number": "189",
      "type": "Автобус"
    },
    "stops": [
      {
        "id": 133768,
        "name": "«3-й мкр. Московского",
        "latitude": 55.59525237,
        "longitude": 37.34926298,
        "districtId": 1664,
        "district": "поселение Московский"
      },
      {
        "id": 134536,
        "name": "«Центр спорта», Проектируемый проезд № 5562",
        "latitude": 55.59855664,
        "longitude": 37.34799935,
        "districtId": 1664,
        "district": "поселение Московский"
      },
      {
        "id": 134513,
        "name": "«Школа профсоюзов», Проектируемый проезд № 5258",
        "latitude": 55.60073218,
        "longitude": 37.35009835,
        "districtId": 1664,
        "district": "поселение Московский"
      },
      {
        "id": 134505,
        "name": "«1-й мкр. Московского», Проектируемый проезд № 5258",
        "latitude": 55.60292147,
        "longitude": 37.34824562,
        "districtId": 1664,
        "district": "поселение Московский"
      },
      {
        "id": 129917,
        "name": "«Дворец культуры», Московский проспект",
        "latitude": 55.9916191,
        "longitude": 37.22456277,
        "districtId": 1648,
        "district": "район Савёлки"
      },
      {
        "id": 135403,
        "name": "«Ул. Никитина», улица Никитина",
        "latitude": 55.60571864,
        "longitude": 37.35931648,
        "districtId": 1664,
        "district": "поселение Московский"
      }
    ],
    "matchPercentage": 0.631578947368421
  },
  {
    "firstRoute": {
      "id": 9474,
      "number": "872",
      "type": "Автобус"
    },
    "secondRoute": {
      "id": 9518,
      "number": "821",
      "type": "Автобус"
    },
    "stops": [
      {
        "id": 130413,
        "name": "«Косинская ул., 28», Косинская улица",
        "latitude": 55.714570461,
        "longitude": 37.8284981817,
        "districtId": 1609,
        "district": "район Вешняки"
      },
      {
        "id": 134715,
        "name": "«Косинская ул., 22», Косинская улица",
        "latitude": 55.71775024,
        "longitude": 37.83209361,
        "districtId": 1609,
        "district": "район Вешняки"
      },
      {
        "id": 130458,
        "name": "«Каскадная ул., 20», Каскадная улица",
        "latitude": 55.70757016,
        "longitude": 37.86883493,
        "districtId": 1662,
        "district": "район Косино-Ухтомский"
      },
      {
        "id": 129775,
        "name": "«Ул. Татьяны Макаровой», улица Руднёвка",
        "latitude": 55.71608771,
        "longitude": 37.88713095,
        "districtId": 1662,
        "district": "район Косино-Ухтомский"
      },
      {
        "id": 129614,
        "name": "«4-й Новомихалковский пр. - Поликлиника № 159», 4-й Новомихалковский проезд",
        "latitude": 55.84075235,
        "longitude": 37.54506468,
        "districtId": 1706,
        "district": "район Коптево"
      },
      {
        "id": 129772,
        "name": "«Ул. Рудневка, 9», улица Руднёвка",
        "latitude": 55.71558519,
        "longitude": 37.88397619,
        "districtId": 1662,
        "district": "район Косино-Ухтомский"
      },
      {
        "id": 130207,
        "name": "«4-й мкр. Кожухова», Лухмановская улица",
        "latitude": 55.71639727,
        "longitude": 37.89997724,
        "districtId": 1662,
        "district": "район Косино-Ухтомский"
      },
      {
        "id": 130743,
        "name": "«Река Рудневка», Лухмановская улица",
        "latitude": 55.71991079,
        "longitude": 37.90086776,
        "districtId": 1662,
        "district": "район Косино-Ухтомский"
      }
    ],
    "matchPercentage": 0.6153846153846154
  },
  {
    "firstRoute": {
      "id": 9479,
      "number": "185",
      "type": "Автобус"
    },
    "secondRoute": {
      "id": 10118,
      "number": "176",
      "type": "Автобус"
    },
    "stops": [
      {
        "id": 133838,
        "name": "«Платф. Лось",
        "latitude": 55.8807411,
        "longitude": 37.71086517,
        "districtId": 1717,
        "district": "Лосиноостровский район"
      },
      {
        "id": 135965,
        "name": "«Ул. Малыгина, 22», улица Малыгина",
        "latitude": 55.88427765,
        "longitude": 37.68882215,
        "districtId": 1717,
        "district": "Лосиноостровский район"
      },
      {
        "id": 138185,
        "name": "«1-я Напрудная ул.», улица Малыгина",
        "latitude": 55.88085036,
        "longitude": 37.69518945,
        "districtId": 1717,
        "district": "Лосиноостровский район"
      },
      {
        "id": 137273,
        "name": "«Изумрудная ул.», Изумрудная улица",
        "latitude": 55.87797065,
        "longitude": 37.69300738,
        "districtId": 1717,
        "district": "Лосиноостровский район"
      },
      {
        "id": 130522,
        "name": "«Минусинская ул.», Анадырский проезд",
        "latitude": 55.87107229,
        "longitude": 37.6955502,
        "districtId": 1717,
        "district": "Лосиноостровский район"
      },
      {
        "id": 132569,
        "name": "«Янтарный пр.», Минусинская улица",
        "latitude": 55.87283804,
        "longitude": 37.69344679,
        "districtId": 1717,
        "district": "Лосиноостровский район"
      },
      {
        "id": 130229,
        "name": "«Библиотека МГУ», Ломоносовский проспект",
        "latitude": 55.69993824,
        "longitude": 37.52418195,
        "districtId": 1718,
        "district": "район Раменки"
      },
      {
        "id": 137258,
        "name": "«Шушенская ул.», улица Коминтерна",
        "latitude": 55.868597,
        "longitude": 37.68619894,
        "districtId": 1717,
        "district": "Лосиноостровский район"
      },
      {
        "id": 130913,
        "name": "«Бабушкинский парк», улица Коминтерна",
        "latitude": 55.86640648,
        "longitude": 37.68284004,
        "districtId": 1717,
        "district": "Лосиноостровский район"
      },
      {
        "id": 136022,
        "name": "«Ул. Рудневой», Изумрудная улица",
        "latitude": 55.86704767,
        "longitude": 37.67669958,
        "districtId": 1736,
        "district": "Бабушкинский район"
      },
      {
        "id": 136109,
        "name": "«Ул. Коминтерна», улица Лётчика Бабушкина",
        "latitude": 55.85974121,
        "longitude": 37.67372436,
        "districtId": 1736,
        "district": "Бабушкинский район"
      },
      {
        "id": 135709,
        "name": "«Ул. Летчика Бабушкина», Печорская улица",
        "latitude": 55.86338951,
        "longitude": 37.67331009,
        "districtId": 1736,
        "district": "Бабушкинский район"
      },
      {
        "id": 138176,
        "name": "«Ул. Летчика Бабушкина - Московский финансово-правовой ин-т», Радужная улица",
        "latitude": 55.86066089,
        "longitude": 37.67234966,
        "districtId": 1736,
        "district": "Бабушкинский район"
      },
      {
        "id": 137260,
        "name": "«Радужная ул., 9», Радужная улица",
        "latitude": 55.86002166,
        "longitude": 37.66510273,
        "districtId": 1736,
        "district": "Бабушкинский район"
      },
      {
        "id": 130648,
        "name": "«Радужная ул., 2», Радужная улица",
        "latitude": 55.59449155,
        "longitude": 37.36716059,
        "districtId": 1664,
        "district": "поселение Московский"
      },
      {
        "id": 135744,
        "name": "«Берингов пр.», Новый Берингов проезд",
        "latitude": 55.85698063,
        "longitude": 37.66085193,
        "districtId": 1736,
        "district": "Бабушкинский район"
      },
      {
        "id": 135721,
        "name": "«Кольская ул.», Кольская улица",
        "latitude": 55.85737835,
        "longitude": 37.65359831,
        "districtId": 1737,
        "district": "район Свиблово"
      }
    ],
    "matchPercentage": 0.68
  },
  {
    "firstRoute": {
      "id": 9482,
      "number": "112Э",
      "type": "Автобус"
    },
    "secondRoute": {
      "id": 9715,
      "number": "655К",
      "type": "Автобус"
    },
    "stops": [
      {
        "id": 132580,
        "name": "«Филиал больницы им. Демихова», улица Капотня",
        "latitude": 55.64125921,
        "longitude": 37.80143228,
        "districtId": 1642,
        "district": "район Капотня"
      },
      {
        "id": 139470,
        "name": "«5-й квартал Капотни, 24», Проектируемый проезд № 5217",
        "latitude": 55.63069678,
        "longitude": 37.8008414,
        "districtId": 1662,
        "district": "район Косино-Ухтомский"
      },
      {
        "id": 139469,
        "name": "«5-й квартал Капотни», Проектируемый проезд № 5217",
        "latitude": 55.6324410036,
        "longitude": 37.8034868532,
        "districtId": 1642,
        "district": "район Капотня"
      },
      {
        "id": 132369,
        "name": "«Продмаг», Батайский проезд",
        "latitude": 55.64338601,
        "longitude": 37.74424797,
        "districtId": 1616,
        "district": "район Марьино"
      },
      {
        "id": 129830,
        "name": "«Рынок», Панфиловский проспект",
        "latitude": 55.97708545,
        "longitude": 37.15629243,
        "districtId": 1646,
        "district": "район Крюково"
      },
      {
        "id": 139466,
        "name": "«Управа района Капотня», 1-й Капотнинский проезд",
        "latitude": 55.6387647,
        "longitude": 37.79304616,
        "districtId": 1642,
        "district": "район Капотня"
      },
      {
        "id": 129752,
        "name": "«Метро Водный Стадион», Кронштадтский бульвар",
        "latitude": 55.83988674,
        "longitude": 37.48669803,
        "districtId": 1709,
        "district": "Головинский район"
      }
    ],
    "matchPercentage": 0.7
  },
  {
    "firstRoute": {
      "id": 9502,
      "number": "1",
      "type": "Трамвай"
    },
    "secondRoute": {
      "id": 10097,
      "number": "16",
      "type": "Трамвай"
    },
    "stops": [
      {
        "id": 132791,
        "name": "«Чертаново Южное», Чертановская улица",
        "latitude": 55.59590523,
        "longitude": 37.58723891,
        "districtId": 1733,
        "district": "район Чертаново Южное"
      },
      {
        "id": 129614,
        "name": "«4-й Новомихалковский пр. - Поликлиника № 159», 4-й Новомихалковский проезд",
        "latitude": 55.84075235,
        "longitude": 37.54506468,
        "districtId": 1706,
        "district": "район Коптево"
      },
      {
        "id": 135588,
        "name": "«Чертановская улица, 53», Чертановская улица",
        "latitude": 55.60298674,
        "longitude": 37.58977667,
        "districtId": 1733,
        "district": "район Чертаново Южное"
      },
      {
        "id": 134447,
        "name": "«Кировоградские пруды», Чертановская улица",
        "latitude": 55.605897377,
        "longitude": 37.5898694245,
        "districtId": 1733,
        "district": "район Чертаново Южное"
      },
      {
        "id": 135678,
        "name": "«Чертановская ул., 44», Чертановская улица",
        "latitude": 55.60899713,
        "longitude": 37.59102749,
        "districtId": 1735,
        "district": "район Чертаново Центральное"
      },
      {
        "id": 135559,
        "name": "«Чертаново Центральное», Чертановская улица",
        "latitude": 55.61173832,
        "longitude": 37.5912788,
        "districtId": 1735,
        "district": "район Чертаново Центральное"
      },
      {
        "id": 133343,
        "name": "«Детская стоматологическая п-ка», Молодогвардейская улица",
        "latitude": 55.73372104,
        "longitude": 37.41266478,
        "districtId": 1700,
        "district": "район Кунцево"
      },
      {
        "id": 136379,
        "name": "«Чертановская ул., 28», Чертановская улица",
        "latitude": 55.61999531,
        "longitude": 37.59364402,
        "districtId": 1735,
        "district": "район Чертаново Центральное"
      },
      {
        "id": 135657,
        "name": "«Сумская ул.», Чертановская улица",
        "latitude": 55.62534363,
        "longitude": 37.59618363,
        "districtId": 1750,
        "district": "район Чертаново Северное"
      },
      {
        "id": 135656,
        "name": "«Школьный парк», Чертановская улица",
        "latitude": 55.62872139,
        "longitude": 37.59842823,
        "districtId": 1750,
        "district": "район Чертаново Северное"
      },
      {
        "id": 135655,
        "name": "«Футбольная школа Чертаново», Чертановская улица",
        "latitude": 55.63134129,
        "longitude": 37.60087457,
        "districtId": 1750,
        "district": "район Чертаново Северное"
      },
      {
        "id": 135654,
        "name": "«Сумской пр.», Чертановская улица",
        "latitude": 55.6339017,
        "longitude": 37.60309472,
        "districtId": 1750,
        "district": "район Чертаново Северное"
      },
      {
        "id": 135653,
        "name": "«Верхний Чертановский пруд», Чертановская улица",
        "latitude": 55.63783615,
        "longitude": 37.60508421,
        "districtId": 1750,
        "district": "район Чертаново Северное"
      },
      {
        "id": 130837,
        "name": "«Балаклавский просп.», Симферопольский бульвар",
        "latitude": 55.64259297,
        "longitude": 37.60532291,
        "districtId": 1723,
        "district": "район Зюзино"
      },
      {
        "id": 130754,
        "name": "«Черноморский бульв., 23», Черноморский бульвар",
        "latitude": 55.6459412,
        "longitude": 37.59701797,
        "districtId": 1723,
        "district": "район Зюзино"
      },
      {
        "id": 135649,
        "name": "«Симферопольский бульв., 20», Симферопольский бульвар",
        "latitude": 55.64911174,
        "longitude": 37.60538678,
        "districtId": 1723,
        "district": "район Зюзино"
      },
      {
        "id": 134470,
        "name": "«Новочеремушкинская ул.», Болотниковская улица",
        "latitude": 55.6666251,
        "longitude": 37.56453676,
        "districtId": 1681,
        "district": "район Черёмушки"
      }
    ],
    "matchPercentage": 0.7083333333333334
  },
  {
    "firstRoute": {
      "id": 9531,
      "number": "836",
      "type": "Автобус"
    },
    "secondRoute": {
      "id": 9703,
      "number": "644",
      "type": "Автобус"
    },
    "stops": [
      {
        "id": 131715,
        "name": "«6-й мкр. Бибирева",
        "latitude": 55.90498081026598,
        "longitude": 37.58839080835437,
        "districtId": 1738,
        "district": "район Бибирево"
      },
      {
        "id": 136013,
        "name": "«Алтуфьевское ш., 102",
        "latitude": 55.90581077,
        "longitude": 37.58960501,
        "districtId": 1738,
        "district": "район Бибирево"
      },
      {
        "id": 131714,
        "name": "«Алтуфьевское ш., 95», Алтуфьевское шоссе",
        "latitude": 55.90220573,
        "longitude": 37.58795605,
        "districtId": 1738,
        "district": "район Бибирево"
      },
      {
        "id": 138009,
        "name": "«Новгородская ул.», Череповецкая улица",
        "latitude": 55.89806144,
        "longitude": 37.57905354,
        "districtId": 1746,
        "district": "район Лианозово"
      },
      {
        "id": 133487,
        "name": "«Череповецкая ул., 14», Абрамцевская улица",
        "latitude": 55.89764729,
        "longitude": 37.57370103,
        "districtId": 1746,
        "district": "район Лианозово"
      },
      {
        "id": 137992,
        "name": "«Лианозовский ПКиО», Череповецкая улица",
        "latitude": 55.898816114325605,
        "longitude": 37.570170674834245,
        "districtId": 1746,
        "district": "район Лианозово"
      },
      {
        "id": 132563,
        "name": "«Угличская ул.», Угличская улица",
        "latitude": 55.89732111,
        "longitude": 37.56793657,
        "districtId": 1746,
        "district": "район Лианозово"
      },
      {
        "id": 131025,
        "name": "«МЦД Лианозово», Лианозовский проезд",
        "latitude": 55.89765334,
        "longitude": 37.55313615,
        "districtId": 1746,
        "district": "район Лианозово"
      },
      {
        "id": 130661,
        "name": "«Дмитровское ш., 116», Лианозовский проезд",
        "latitude": 55.90011858,
        "longitude": 37.54633283,
        "districtId": 1746,
        "district": "район Лианозово"
      },
      {
        "id": 130505,
        "name": "«МЦД Марк», Новодачное шоссе",
        "latitude": 55.90585186,
        "longitude": 37.53856696,
        "districtId": 1746,
        "district": "район Лианозово"
      },
      {
        "id": 130146,
        "name": "«Северный бульв.», Северный бульвар",
        "latitude": 55.86871737,
        "longitude": 37.62031913,
        "districtId": 1742,
        "district": "район Отрадное"
      }
    ],
    "matchPercentage": 0.6470588235294118
  },
  {
    "firstRoute": {
      "id": 9533,
      "number": "840",
      "type": "Автобус"
    },
    "secondRoute": {
      "id": 10101,
      "number": "157",
      "type": "Автобус"
    },
    "stops": [
      {
        "id": 137910,
        "name": "«Дорогобужская ул.», Можайское шоссе",
        "latitude": 55.71765921,
        "longitude": 37.41328378,
        "districtId": 1748,
        "district": "Можайский район"
      },
      {
        "id": 136219,
        "name": "«Ул. Гришина», Можайское шоссе",
        "latitude": 55.71919354,
        "longitude": 37.42186325,
        "districtId": 1748,
        "district": "Можайский район"
      },
      {
        "id": 135576,
        "name": "«Ул. Петра Алексеева», Можайское шоссе",
        "latitude": 55.72090368,
        "longitude": 37.42942445,
        "districtId": 1748,
        "district": "Можайский район"
      },
      {
        "id": 135552,
        "name": "«Ул. Багрицкого», Можайское шоссе",
        "latitude": 55.72160312,
        "longitude": 37.43814097,
        "districtId": 1748,
        "district": "Можайский район"
      },
      {
        "id": 137912,
        "name": "«Ул. Вересаева», Можайское шоссе",
        "latitude": 55.72220134,
        "longitude": 37.44496319,
        "districtId": 1748,
        "district": "Можайский район"
      },
      {
        "id": 136238,
        "name": "«Ул. Клочкова», Кутузовский проспект",
        "latitude": 55.72381003,
        "longitude": 37.44999919,
        "districtId": 1744,
        "district": "район Фили-Давыдково"
      },
      {
        "id": 135875,
        "name": "«Ул. Алексея Свиридова», Славянский бульвар",
        "latitude": 55.72575562,
        "longitude": 37.46199911,
        "districtId": 1744,
        "district": "район Фили-Давыдково"
      },
      {
        "id": 129915,
        "name": "«Парк Победы», Центральный проспект",
        "latitude": 55.99007686,
        "longitude": 37.2134673,
        "districtId": 1648,
        "district": "район Савёлки"
      },
      {
        "id": 141293,
        "name": "«Поклонная Гора», Кутузовский проспект",
        "latitude": 55.73418788,
        "longitude": 37.50634387,
        "districtId": 1699,
        "district": "район Дорогомилово"
      },
      {
        "id": 135892,
        "name": "«Поклонная ул.», Кутузовский проспект",
        "latitude": 55.7387547712,
        "longitude": 37.5304017821,
        "districtId": 1699,
        "district": "район Дорогомилово"
      },
      {
        "id": 136214,
        "name": "«Студгородок», Кутузовский проспект",
        "latitude": 55.74119699,
        "longitude": 37.53741019,
        "districtId": 1699,
        "district": "район Дорогомилово"
      },
      {
        "id": 141294,
        "name": "«Ул. Дунаевского», Кутузовский проспект",
        "latitude": 55.74393078,
        "longitude": 37.54602743,
        "districtId": 1699,
        "district": "район Дорогомилово"
      },
      {
        "id": 135035,
        "name": "«Дорогомиловская Застава», Большая Дорогомиловская улица",
        "latitude": 55.746457,
        "longitude": 37.55507201,
        "districtId": 1699,
        "district": "район Дорогомилово"
      },
      {
        "id": 133111,
        "name": "«Ул. Можайский Вал», Большая Дорогомиловская улица",
        "latitude": 55.74653816,
        "longitude": 37.55920259,
        "districtId": 1699,
        "district": "район Дорогомилово"
      },
      {
        "id": 130881,
        "name": "«2-й Брянский пер.», Большая Дорогомиловская улица",
        "latitude": 55.74579195,
        "longitude": 37.56233426,
        "districtId": 1699,
        "district": "район Дорогомилово"
      },
      {
        "id": 132993,
        "name": "«Киевский вокзал», площадь Киевского Вокзала",
        "latitude": 55.74373739,
        "longitude": 37.5663499,
        "districtId": 1699,
        "district": "район Дорогомилово"
      }
    ],
    "matchPercentage": 0.7111111111111111
  },
  {
    "firstRoute": {
      "id": 9542,
      "number": "921",
      "type": "Автобус"
    },
    "secondRoute": {
      "id": 9915,
      "number": "ДП98",
      "type": "Автобус"
    },
    "stops": [
      {
        "id": 131583,
        "name": "«Бирюлёво Западное», Востряковский проезд",
        "latitude": 55.5745243962,
        "longitude": 37.6488912202,
        "districtId": 1728,
        "district": "район Бирюлёво Западное"
      },
      {
        "id": 136798,
        "name": "«МФЦ Бирюлево Западное», Востряковский проезд",
        "latitude": 55.57521133,
        "longitude": 37.65668423,
        "districtId": 1728,
        "district": "район Бирюлёво Западное"
      },
      {
        "id": 136836,
        "name": "«Востряковский пр., 25», Булатниковский проезд",
        "latitude": 55.57571623,
        "longitude": 37.65996558,
        "districtId": 1728,
        "district": "район Бирюлёво Западное"
      },
      {
        "id": 129673,
        "name": "«Детская п-ка», улица Каменка",
        "latitude": 55.98019918,
        "longitude": 37.16174927,
        "districtId": 1646,
        "district": "район Крюково"
      },
      {
        "id": 136799,
        "name": "«Булатниковская ул.», Булатниковская улица",
        "latitude": 55.57978808,
        "longitude": 37.65804567,
        "districtId": 1728,
        "district": "район Бирюлёво Западное"
      },
      {
        "id": 130911,
        "name": "«Ледовый дворец», улица Маршала Савицкого",
        "latitude": 55.50531666,
        "longitude": 37.58204513,
        "districtId": 1666,
        "district": "район Южное Бутово"
      },
      {
        "id": 136709,
        "name": "«Управа района Бирюлёво Западное», Медынская улица",
        "latitude": 55.58263447,
        "longitude": 37.64736129,
        "districtId": 1728,
        "district": "район Бирюлёво Западное"
      },
      {
        "id": 136708,
        "name": "«Медынская ул., 12», Медынская улица",
        "latitude": 55.58438499,
        "longitude": 37.64669631,
        "districtId": 1728,
        "district": "район Бирюлёво Западное"
      },
      {
        "id": 131670,
        "name": "«Медынская улица», Харьковская улица",
        "latitude": 55.58698125,
        "longitude": 37.64717895,
        "districtId": 1728,
        "district": "район Бирюлёво Западное"
      },
      {
        "id": 136712,
        "name": "«Харьковская ул.», улица Подольских Курсантов",
        "latitude": 55.58806764,
        "longitude": 37.63725752,
        "districtId": 1728,
        "district": "район Бирюлёво Западное"
      },
      {
        "id": 136713,
        "name": "«Ступинский пр.», улица Подольских Курсантов",
        "latitude": 55.58917091,
        "longitude": 37.63528842,
        "districtId": 1728,
        "district": "район Бирюлёво Западное"
      },
      {
        "id": 136714,
        "name": "«Ул. Подольских Курсантов, 26», улица Подольских Курсантов",
        "latitude": 55.59398346,
        "longitude": 37.63601531,
        "districtId": 1728,
        "district": "район Бирюлёво Западное"
      },
      {
        "id": 136715,
        "name": "«Покровское кладб.», улица Подольских Курсантов",
        "latitude": 55.59677651,
        "longitude": 37.63653098,
        "districtId": 1728,
        "district": "район Бирюлёво Западное"
      },
      {
        "id": 136716,
        "name": "«Ул. Подольских Курсантов, 22», улица Подольских Курсантов",
        "latitude": 55.6000297331,
        "longitude": 37.6370160515,
        "districtId": 1728,
        "district": "район Бирюлёво Западное"
      }
    ],
    "matchPercentage": 0.6666666666666666
  },
  {
    "firstRoute": {
      "id": 9542,
      "number": "921",
      "type": "Автобус"
    },
    "secondRoute": {
      "id": 9968,
      "number": "М96",
      "type": "Автобус"
    },
    "stops": [
      {
        "id": 131583,
        "name": "«Бирюлёво Западное», Востряковский проезд",
        "latitude": 55.5745243962,
        "longitude": 37.6488912202,
        "districtId": 1728,
        "district": "район Бирюлёво Западное"
      },
      {
        "id": 136798,
        "name": "«МФЦ Бирюлево Западное», Востряковский проезд",
        "latitude": 55.57521133,
        "longitude": 37.65668423,
        "districtId": 1728,
        "district": "район Бирюлёво Западное"
      },
      {
        "id": 136836,
        "name": "«Востряковский пр., 25», Булатниковский проезд",
        "latitude": 55.57571623,
        "longitude": 37.65996558,
        "districtId": 1728,
        "district": "район Бирюлёво Западное"
      },